{
 "type": "FeatureCollection",
 "metadata": {
  "title": "Portrait",
  "note": "Dataset compiled from a public-domain text. Coordinates via OpenStreetMap/Nominatim; routes via OSRM (driving) / BRouter (foot).",
  "license": "CC BY-NC 4.0"
 },
 "features": [
  {
   "type": "Feature",
   "properties": {
    "work": "Portrait",
    "group": 1,
    "story": "Chapter 1",
    "group_de": "Kapitel 1",
    "name": "Clongowes Wood College",
    "kind": "place",
    "gloss": "Stephen's first boarding school; the square ditch, the infirmary, and the unjust pandybatting by Father Dolan.",
    "quote": "Once upon a time and a very good time it was there was a moocow coming down along the road and this moocow that was coming down along the road met a nicens little boy named baby tuckoo.",
    "ref": "Ch. 1"
   },
   "geometry": {
    "type": "Point",
    "coordinates": [
     -6.686851,
     53.310977
    ]
   }
  },
  {
   "type": "Feature",
   "properties": {
    "work": "Portrait",
    "group": 1,
    "story": "Chapter 1",
    "group_de": "Kapitel 1",
    "name": "The Dedalus home, Bray",
    "kind": "place",
    "gloss": "The bitter Christmas-dinner quarrel over Parnell between Dante, Mr Casey and Simon Dedalus."
   },
   "geometry": {
    "type": "Point",
    "coordinates": [
     -6.101173,
     53.207324
    ]
   }
  },
  {
   "type": "Feature",
   "properties": {
    "work": "Portrait",
    "group": 2,
    "story": "Chapter 2",
    "group_de": "Kapitel 2",
    "name": "Blackrock",
    "kind": "place",
    "gloss": "The family's home in faded prosperity; Stephen's Monte Cristo daydreams and evening runs with Mike Flynn."
   },
   "geometry": {
    "type": "Point",
    "coordinates": [
     -6.178834,
     53.301864
    ]
   }
  },
  {
   "type": "Feature",
   "properties": {
    "work": "Portrait",
    "group": 2,
    "story": "Chapter 2",
    "group_de": "Kapitel 2",
    "name": "Belvedere College",
    "kind": "place",
    "gloss": "Stephen's Jesuit day school in the city; the Whitsuntide play and his growing inward estrangement."
   },
   "geometry": {
    "type": "Point",
    "coordinates": [
     -6.26243,
     53.355758
    ]
   }
  },
  {
   "type": "Feature",
   "properties": {
    "work": "Portrait",
    "group": 2,
    "story": "Chapter 2",
    "group_de": "Kapitel 2",
    "name": "Cork",
    "kind": "place",
    "gloss": "Stephen travels with his father to sell the last of the family property; he feels utterly estranged."
   },
   "geometry": {
    "type": "Point",
    "coordinates": [
     -8.472642,
     51.898514
    ]
   }
  },
  {
   "type": "Feature",
   "properties": {
    "work": "Portrait",
    "group": 2,
    "story": "Chapter 2",
    "group_de": "Kapitel 2",
    "name": "Queen's College, Cork",
    "kind": "place",
    "gloss": "In his father's old anatomy theatre the word ‘Foetus’ cut into a desk jolts Stephen with shame."
   },
   "geometry": {
    "type": "Point",
    "coordinates": [
     -8.49031,
     51.894701
    ]
   }
  },
  {
   "type": "Feature",
   "properties": {
    "work": "Portrait",
    "group": 2,
    "story": "Chapter 2",
    "group_de": "Kapitel 2",
    "name": "Nighttown",
    "kind": "place",
    "gloss": "The brothel quarter (Monto); at the chapter's close Stephen wanders into the arms of a prostitute."
   },
   "geometry": {
    "type": "Point",
    "coordinates": [
     -6.253219,
     53.351375
    ]
   }
  },
  {
   "type": "Feature",
   "properties": {
    "work": "Portrait",
    "group": 3,
    "story": "Chapter 3",
    "group_de": "Kapitel 3",
    "name": "The retreat, Belvedere College",
    "kind": "place",
    "gloss": "The three-day retreat and the terrifying sermons on death and hell that drive Stephen to repentance."
   },
   "geometry": {
    "type": "Point",
    "coordinates": [
     -6.26243,
     53.355758
    ]
   }
  },
  {
   "type": "Feature",
   "properties": {
    "work": "Portrait",
    "group": 3,
    "story": "Chapter 3",
    "group_de": "Kapitel 3",
    "name": "Church Street chapel",
    "kind": "place",
    "gloss": "Across the city, in terror of damnation, Stephen makes his confession to a Capuchin priest."
   },
   "geometry": {
    "type": "Point",
    "coordinates": [
     -6.2772,
     53.3476
    ]
   }
  },
  {
   "type": "Feature",
   "properties": {
    "work": "Portrait",
    "group": 4,
    "story": "Chapter 4",
    "group_de": "Kapitel 4",
    "name": "Bull Wall, Dollymount",
    "kind": "place",
    "gloss": "The wading girl — Stephen's great epiphany of beauty and his calling to art rather than priesthood.",
    "quote": "A girl stood before him in midstream, alone and still, gazing out to sea. She seemed like one whom magic had changed into the likeness of a strange and beautiful seabird.",
    "ref": "Ch. 4"
   },
   "geometry": {
    "type": "Point",
    "coordinates": [
     -6.174428,
     53.356919
    ]
   }
  },
  {
   "type": "Feature",
   "properties": {
    "work": "Portrait",
    "group": 4,
    "story": "Chapter 4",
    "group_de": "Kapitel 4",
    "name": "North Bull Island",
    "kind": "place",
    "gloss": "Stephen crosses the wooden bridge to the strand where, wading, he sees the bird-girl."
   },
   "geometry": {
    "type": "Point",
    "coordinates": [
     -6.141645,
     53.374037
    ]
   }
  },
  {
   "type": "Feature",
   "properties": {
    "work": "Portrait",
    "group": 4,
    "story": "Chapter 4",
    "group_de": "Kapitel 4",
    "name": "The director's office, Belvedere",
    "kind": "place",
    "gloss": "The director sounds Stephen on a vocation to the priesthood — an offer he silently declines."
   },
   "geometry": {
    "type": "Point",
    "coordinates": [
     -6.26243,
     53.355758
    ]
   }
  },
  {
   "type": "Feature",
   "properties": {
    "work": "Portrait",
    "group": 5,
    "story": "Chapter 5",
    "group_de": "Kapitel 5",
    "name": "University College Dublin (Newman House)",
    "kind": "place",
    "gloss": "Stephen the university student; the dean of studies, the aesthetic theory, the villanelle."
   },
   "geometry": {
    "type": "Point",
    "coordinates": [
     -6.260554,
     53.337148
    ]
   }
  },
  {
   "type": "Feature",
   "properties": {
    "work": "Portrait",
    "group": 5,
    "story": "Chapter 5",
    "group_de": "Kapitel 5",
    "name": "National Library of Ireland",
    "kind": "place",
    "gloss": "On its steps Stephen watches the birds and argues with Cranly about belief and exile."
   },
   "geometry": {
    "type": "Point",
    "coordinates": [
     -6.2545,
     53.341125
    ]
   }
  },
  {
   "type": "Feature",
   "properties": {
    "work": "Portrait",
    "group": 5,
    "story": "Chapter 5",
    "group_de": "Kapitel 5",
    "name": "St Stephen's Green",
    "kind": "place",
    "gloss": "The Green Stephen crosses daily, emblem of the city he is preparing to leave."
   },
   "geometry": {
    "type": "Point",
    "coordinates": [
     -6.259023,
     53.338052
    ]
   }
  },
  {
   "type": "Feature",
   "properties": {
    "work": "Portrait",
    "group": 5,
    "story": "Chapter 5",
    "group_de": "Kapitel 5",
    "name": "Kingstown Harbour (departure)",
    "kind": "place",
    "gloss": "The diary's close: Stephen resolves to leave Ireland for the continent.",
    "quote": "Welcome, O life! I go to encounter for the millionth time the reality of experience and to forge in the smithy of my soul the uncreated conscience of my race.",
    "ref": "Ch. 5"
   },
   "geometry": {
    "type": "Point",
    "coordinates": [
     -6.134469,
     53.298595
    ]
   }
  }
 ]
}